{"type":"FeatureCollection","features":[{"type":"Feature","properties":{"name":"Sussis G\u00e5rdsbageri","id":2354,"link":"https:\/\/www.fjardhundraland.se\/plats\/sussis-gardsbageri\/","marker-color":"#f00","marker-size":"small"},"geometry":{"type":"Point","coordinates":[17.443792147221,59.666964004597]}},{"type":"Feature","properties":{"name":"Caf\u00e9 Samt","id":1818,"link":"https:\/\/www.fjardhundraland.se\/plats\/cafe-samt\/","marker-color":"#f00","marker-size":"small"},"geometry":{"type":"Point","coordinates":[17.0799753,59.6365828]}},{"type":"Feature","properties":{"name":"Kromsta lantbod","id":1664,"link":"https:\/\/www.fjardhundraland.se\/plats\/kromsta-lantbod\/","marker-color":"#f00","marker-size":"small"},"geometry":{"type":"Point","coordinates":[17.24661238122,59.674026740884]}},{"type":"Feature","properties":{"name":"Gula Stallet Butik &#038; Kaf\u00e9","id":2304,"link":"https:\/\/www.fjardhundraland.se\/plats\/gula-stallet-butik-kafe\/","marker-color":"#f00","marker-size":"small"},"geometry":{"type":"Point","coordinates":[16.885986,59.599157]}},{"type":"Feature","properties":{"name":"Fr\u00f6slunda ekog\u00e5rd","id":1486,"link":"https:\/\/www.fjardhundraland.se\/plats\/froslunda-ekogard\/","marker-color":"#f00","marker-size":"small"},"geometry":{"type":"Point","coordinates":[16.916667,59.816667]}},{"type":"Feature","properties":{"name":"Franz\u00e9ns charkuterier","id":2312,"link":"https:\/\/www.fjardhundraland.se\/plats\/franzens-charkuterier\/","marker-color":"#f00","marker-size":"small"},"geometry":{"type":"Point","coordinates":[17.230253219604,59.71707495825]}},{"type":"Feature","properties":{"name":"Hallonparken","id":3610,"link":"https:\/\/www.fjardhundraland.se\/plats\/hallonparken\/","marker-color":"#f00","marker-size":"small"},"geometry":{"type":"Point","coordinates":[17.4643617,59.6734694]}},{"type":"Feature","properties":{"name":"H\u00e4st och gr\u00f6nsaksbonden","id":3606,"link":"https:\/\/www.fjardhundraland.se\/plats\/hast-och-gronsaksbonden\/","marker-color":"#f00","marker-size":"small"},"geometry":{"type":"Point","coordinates":[16.8898278,59.5978587]}},{"type":"Feature","properties":{"name":"Resta G\u00e5rd","id":1826,"link":"https:\/\/www.fjardhundraland.se\/plats\/resta-gard\/","marker-color":"#f00","marker-size":"small"},"geometry":{"type":"Point","coordinates":[17.2215433,59.7722813]}},{"type":"Feature","properties":{"name":"M\u00e4lby tr\u00e4dg\u00e5rd","id":1729,"link":"https:\/\/www.fjardhundraland.se\/plats\/malby-tradgard\/","marker-color":"#f00","marker-size":"small"},"geometry":{"type":"Point","coordinates":[16.9432563,59.7405592]}},{"type":"Feature","properties":{"name":"Pekoe ekologiskt te","id":1582,"link":"https:\/\/www.fjardhundraland.se\/plats\/pekoe-ekologiskt-te\/","marker-color":"#f00","marker-size":"small"},"geometry":{"type":"Point","coordinates":[17.108475,59.814161]}},{"type":"Feature","properties":{"name":"S\u00f6rg\u00e5rden gr\u00f6nt","id":1881,"link":"https:\/\/www.fjardhundraland.se\/plats\/sorgarden-gront\/","marker-color":"#f00","marker-size":"small"},"geometry":{"type":"Point","coordinates":[17.035074234009,59.794632213175]}},{"type":"Feature","properties":{"name":"Skogsbackens ost","id":1855,"link":"https:\/\/www.fjardhundraland.se\/plats\/skogsbackens-ost\/","marker-color":"#f00","marker-size":"small"},"geometry":{"type":"Point","coordinates":[17.4093232,59.7178532]}},{"type":"Feature","properties":{"name":"Sunnansj\u00f6 g\u00e5rd","id":2872,"link":"https:\/\/www.fjardhundraland.se\/plats\/sunnansjo-gard\/","marker-color":"#f00","marker-size":"small"},"geometry":{"type":"Point","coordinates":[17.1586679,59.8621477]}},{"type":"Feature","properties":{"name":"Alsta tr\u00e4dg\u00e5rdar","id":2341,"link":"https:\/\/www.fjardhundraland.se\/plats\/alsta-tradgardar\/","marker-color":"#f00","marker-size":"small"},"geometry":{"type":"Point","coordinates":[17.250101566315,59.752120311589]}}]}