{"type":"FeatureCollection","features":[{"type":"Feature","properties":{"name":"Altunastenen","id":3736,"link":"https:\/\/www.fjardhundraland.se\/plats\/altunastenen\/","marker-color":"#f00","marker-size":"small"},"geometry":{"type":"Point","coordinates":[16.931433677673,59.819448395679]}},{"type":"Feature","properties":{"name":"\u00c4s\u00e5sen","id":3699,"link":"https:\/\/www.fjardhundraland.se\/plats\/asasen\/","marker-color":"#f00","marker-size":"small"},"geometry":{"type":"Point","coordinates":[17.093396186829,59.713975765433]}},{"type":"Feature","properties":{"name":"Morgong\u00e5va vikingaomr\u00e5de","id":3238,"link":"https:\/\/www.fjardhundraland.se\/plats\/morgongava-vikingaomrade\/","marker-color":"#f00","marker-size":"small"},"geometry":{"type":"Point","coordinates":[16.9808095,59.9269523]}},{"type":"Feature","properties":{"name":"Morgong\u00e5vas nya runsten","id":2906,"link":"https:\/\/www.fjardhundraland.se\/plats\/morgongava-nya-runsten\/","marker-color":"#f00","marker-size":"small"},"geometry":{"type":"Point","coordinates":[16.963523626328,59.932970859696]}},{"type":"Feature","properties":{"name":"Runstenar i Hj\u00e4ltberga","id":1816,"link":"https:\/\/www.fjardhundraland.se\/plats\/runstenar-i-hjaltberga\/","marker-color":"#f00","marker-size":"small"},"geometry":{"type":"Point","coordinates":[16.980641484261,59.759248082911]}},{"type":"Feature","properties":{"name":"Runsten i Isby","id":1817,"link":"https:\/\/www.fjardhundraland.se\/plats\/runsten-i-isby\/","marker-color":"#f00","marker-size":"small"},"geometry":{"type":"Point","coordinates":[16.852560639381,59.743662357426]}},{"type":"Feature","properties":{"name":"Runstenen i Forsby","id":1815,"link":"https:\/\/www.fjardhundraland.se\/plats\/runstenen-i-forsby\/","marker-color":"#f00","marker-size":"small"},"geometry":{"type":"Point","coordinates":[16.976425051689,59.776481877193]}},{"type":"Feature","properties":{"name":"Runstenarna i Brunnby","id":1814,"link":"https:\/\/www.fjardhundraland.se\/plats\/runstenar-i-brunnby\/","marker-color":"#f00","marker-size":"small"},"geometry":{"type":"Point","coordinates":[16.998327970505,59.736257390506]}},{"type":"Feature","properties":{"name":"Skutters skans","id":1666,"link":"https:\/\/www.fjardhundraland.se\/plats\/skutters-skans\/","marker-color":"#f00","marker-size":"small"},"geometry":{"type":"Point","coordinates":[16.882467269897,59.743379986283]}},{"type":"Feature","properties":{"name":"Runstenen vid \u00d6sterunda kyrka","id":975,"link":"https:\/\/www.fjardhundraland.se\/plats\/runstenen-vid-osterunda-kyrka\/","marker-color":"#f00","marker-size":"small"},"geometry":{"type":"Point","coordinates":[17.109656250926,59.814231693826]}}]}