{"type":"FeatureCollection","features":[{"type":"Feature","properties":{"name":"Skattmans\u00f6backen","id":1602,"link":"https:\/\/www.fjardhundraland.se\/plats\/skattmansobacken\/","marker-color":"#f00","marker-size":"small"},"geometry":{"type":"Point","coordinates":[17.060587406158,59.831839650758]}},{"type":"Feature","properties":{"name":"Caf\u00e9 Samt","id":1818,"link":"https:\/\/www.fjardhundraland.se\/plats\/cafe-samt\/","marker-color":"#f00","marker-size":"small"},"geometry":{"type":"Point","coordinates":[17.0799753,59.6365828]}},{"type":"Feature","properties":{"name":"Kromsta lantbod","id":1664,"link":"https:\/\/www.fjardhundraland.se\/plats\/kromsta-lantbod\/","marker-color":"#f00","marker-size":"small"},"geometry":{"type":"Point","coordinates":[17.24661238122,59.674026740884]}},{"type":"Feature","properties":{"name":"Fr\u00f6slunda ekog\u00e5rd","id":1486,"link":"https:\/\/www.fjardhundraland.se\/plats\/froslunda-ekogard\/","marker-color":"#f00","marker-size":"small"},"geometry":{"type":"Point","coordinates":[16.916667,59.816667]}},{"type":"Feature","properties":{"name":"J\u00e4dra G\u00e5rd","id":2507,"link":"https:\/\/www.fjardhundraland.se\/plats\/jadra-gard\/","marker-color":"#f00","marker-size":"small"},"geometry":{"type":"Point","coordinates":[17.0562423,59.6712955]}},{"type":"Feature","properties":{"name":"Forsby kvarn kaf\u00e9","id":1015,"link":"https:\/\/www.fjardhundraland.se\/plats\/forsby-kvarn-kafe\/","marker-color":"#f00","marker-size":"small"},"geometry":{"type":"Point","coordinates":[16.973118636771,59.779642804626]}},{"type":"Feature","properties":{"name":"Resta G\u00e5rd","id":1826,"link":"https:\/\/www.fjardhundraland.se\/plats\/resta-gard\/","marker-color":"#f00","marker-size":"small"},"geometry":{"type":"Point","coordinates":[17.2215433,59.7722813]}},{"type":"Feature","properties":{"name":"M\u00e4lby tr\u00e4dg\u00e5rd","id":1729,"link":"https:\/\/www.fjardhundraland.se\/plats\/malby-tradgard\/","marker-color":"#f00","marker-size":"small"},"geometry":{"type":"Point","coordinates":[16.9432563,59.7405592]}},{"type":"Feature","properties":{"name":"S\u00f6rg\u00e5rden gr\u00f6nt","id":1881,"link":"https:\/\/www.fjardhundraland.se\/plats\/sorgarden-gront\/","marker-color":"#f00","marker-size":"small"},"geometry":{"type":"Point","coordinates":[17.035074234009,59.794632213175]}},{"type":"Feature","properties":{"name":"Skogsbackens ost","id":1855,"link":"https:\/\/www.fjardhundraland.se\/plats\/skogsbackens-ost\/","marker-color":"#f00","marker-size":"small"},"geometry":{"type":"Point","coordinates":[17.4093232,59.7178532]}},{"type":"Feature","properties":{"name":"Farmor Elsas g\u00e5rdsbageri","id":1011,"link":"https:\/\/www.fjardhundraland.se\/plats\/farmor-elsas-gardsbageri\/","marker-color":"#f00","marker-size":"small"},"geometry":{"type":"Point","coordinates":[16.9292521,59.80945]}},{"type":"Feature","properties":{"name":"Mel&#8217;s Drive-in","id":1723,"link":"https:\/\/www.fjardhundraland.se\/plats\/mels-place\/","marker-color":"#f00","marker-size":"small"},"geometry":{"type":"Point","coordinates":[16.9264904,59.7739897]}},{"type":"Feature","properties":{"name":"Vallgarns g\u00e5rdsmejeri","id":1941,"link":"https:\/\/www.fjardhundraland.se\/plats\/vallgarns-gardsmejeri\/","marker-color":"#f00","marker-size":"small"},"geometry":{"type":"Point","coordinates":[17.157134833868,59.704033585229]}},{"type":"Feature","properties":{"name":"Matlust","id":1715,"link":"https:\/\/www.fjardhundraland.se\/plats\/matlust-i-orsundsbro\/","marker-color":"#f00","marker-size":"small"},"geometry":{"type":"Point","coordinates":[0,0]}},{"type":"Feature","properties":{"name":"Dunderbo Ljus och Hantverk","id":1008,"link":"https:\/\/www.fjardhundraland.se\/plats\/dunderbo-ljus-och-hantverk\/","marker-color":"#f00","marker-size":"small"},"geometry":{"type":"Point","coordinates":[16.9185869,59.748933]}},{"type":"Feature","properties":{"name":"\u00d6sterundag\u00e5rden","id":1879,"link":"https:\/\/www.fjardhundraland.se\/plats\/osterundagarden\/","marker-color":"#f00","marker-size":"small"},"geometry":{"type":"Point","coordinates":[17.103266716003,59.813567320574]}},{"type":"Feature","properties":{"name":"Refvelsta Fideikomiss","id":1866,"link":"https:\/\/www.fjardhundraland.se\/plats\/refvelsta-fideikomiss\/","marker-color":"#f00","marker-size":"small"},"geometry":{"type":"Point","coordinates":[16.970658302307,59.809752747148]}},{"type":"Feature","properties":{"name":"Lundellska galleriet","id":1880,"link":"https:\/\/www.fjardhundraland.se\/plats\/lundellska-galleriet\/","marker-color":"#f00","marker-size":"small"},"geometry":{"type":"Point","coordinates":[16.883035898209,59.779218435741]}},{"type":"Feature","properties":{"name":"Gyllene Brunnen fest och konferens","id":1493,"link":"https:\/\/www.fjardhundraland.se\/plats\/gyllene-brunnen-fest-och-konferens\/","marker-color":"#f00","marker-size":"small"},"geometry":{"type":"Point","coordinates":[17.016095133205,59.734302514676]}},{"type":"Feature","properties":{"name":"Domta-grisen","id":1004,"link":"https:\/\/www.fjardhundraland.se\/plats\/domta-grisen\/","marker-color":"#f00","marker-size":"small"},"geometry":{"type":"Point","coordinates":[17.132701277733,59.806065613195]}},{"type":"Feature","properties":{"name":"H\u00e4rnevi plantskola","id":1498,"link":"https:\/\/www.fjardhundraland.se\/plats\/harnevi-plantskola\/","marker-color":"#f00","marker-size":"small"},"geometry":{"type":"Point","coordinates":[17.0836155,59.7135867]}}]}