{"type":"FeatureCollection","features":[{"type":"Feature","properties":{"name":"Farmor Elsas g\u00e5rdsbageri","id":1011,"link":"https:\/\/www.fjardhundraland.se\/plats\/farmor-elsas-gardsbageri\/","marker-color":"#f00","marker-size":"small"},"geometry":{"type":"Point","coordinates":[16.9292521,59.80945]}},{"type":"Feature","properties":{"name":"\u00d6sterundag\u00e5rden","id":1879,"link":"https:\/\/www.fjardhundraland.se\/plats\/osterundagarden\/","marker-color":"#f00","marker-size":"small"},"geometry":{"type":"Point","coordinates":[17.103266716003,59.813567320574]}},{"type":"Feature","properties":{"name":"Rotbrunna h\u00e4st &#038; kursg\u00e5rd","id":1778,"link":"https:\/\/www.fjardhundraland.se\/plats\/rotbrunna-hast-kursgard\/","marker-color":"#f00","marker-size":"small"},"geometry":{"type":"Point","coordinates":[17.063094756067,59.716885621558]}},{"type":"Feature","properties":{"name":"Glada F\u00e5ret","id":1984,"link":"https:\/\/www.fjardhundraland.se\/plats\/glada-faret\/","marker-color":"#f00","marker-size":"small"},"geometry":{"type":"Point","coordinates":[16.839079856873,59.732985916569]}},{"type":"Feature","properties":{"name":"Gyllene Brunnen fest och konferens","id":1493,"link":"https:\/\/www.fjardhundraland.se\/plats\/gyllene-brunnen-fest-och-konferens\/","marker-color":"#f00","marker-size":"small"},"geometry":{"type":"Point","coordinates":[17.016095133205,59.734302514676]}}]}