{"type":"FeatureCollection","features":[{"type":"Feature","properties":{"name":"Gula Stallet Butik &#038; Kaf\u00e9","id":2304,"link":"https:\/\/www.fjardhundraland.se\/plats\/gula-stallet-butik-kafe\/","marker-color":"#f00","marker-size":"small"},"geometry":{"type":"Point","coordinates":[16.885986,59.599157]}},{"type":"Feature","properties":{"name":"Franz\u00e9ns charkuterier","id":2312,"link":"https:\/\/www.fjardhundraland.se\/plats\/franzens-charkuterier\/","marker-color":"#f00","marker-size":"small"},"geometry":{"type":"Point","coordinates":[17.230253219604,59.71707495825]}},{"type":"Feature","properties":{"name":"Forsby kvarn kaf\u00e9","id":1015,"link":"https:\/\/www.fjardhundraland.se\/plats\/forsby-kvarn-kafe\/","marker-color":"#f00","marker-size":"small"},"geometry":{"type":"Point","coordinates":[16.973118636771,59.779642804626]}},{"type":"Feature","properties":{"name":"Farmor Elsas g\u00e5rdsbageri","id":1011,"link":"https:\/\/www.fjardhundraland.se\/plats\/farmor-elsas-gardsbageri\/","marker-color":"#f00","marker-size":"small"},"geometry":{"type":"Point","coordinates":[16.9292521,59.80945]}},{"type":"Feature","properties":{"name":"Vallgarns g\u00e5rdsmejeri","id":1941,"link":"https:\/\/www.fjardhundraland.se\/plats\/vallgarns-gardsmejeri\/","marker-color":"#f00","marker-size":"small"},"geometry":{"type":"Point","coordinates":[17.157134833868,59.704033585229]}},{"type":"Feature","properties":{"name":"Matlust","id":1715,"link":"https:\/\/www.fjardhundraland.se\/plats\/matlust-i-orsundsbro\/","marker-color":"#f00","marker-size":"small"},"geometry":{"type":"Point","coordinates":[0,0]}},{"type":"Feature","properties":{"name":"Dunderbo Ljus och Hantverk","id":1008,"link":"https:\/\/www.fjardhundraland.se\/plats\/dunderbo-ljus-och-hantverk\/","marker-color":"#f00","marker-size":"small"},"geometry":{"type":"Point","coordinates":[16.9185869,59.748933]}},{"type":"Feature","properties":{"name":"Siggesta v\u00e4vstuga","id":1882,"link":"https:\/\/www.fjardhundraland.se\/plats\/siggesta-vavstuga\/","marker-color":"#f00","marker-size":"small"},"geometry":{"type":"Point","coordinates":[16.855516433716,59.760290835111]}},{"type":"Feature","properties":{"name":"Rotbrunna h\u00e4st &#038; kursg\u00e5rd","id":1778,"link":"https:\/\/www.fjardhundraland.se\/plats\/rotbrunna-hast-kursgard\/","marker-color":"#f00","marker-size":"small"},"geometry":{"type":"Point","coordinates":[17.063094756067,59.716885621558]}},{"type":"Feature","properties":{"name":"Lundellska galleriet","id":1880,"link":"https:\/\/www.fjardhundraland.se\/plats\/lundellska-galleriet\/","marker-color":"#f00","marker-size":"small"},"geometry":{"type":"Point","coordinates":[16.883035898209,59.779218435741]}},{"type":"Feature","properties":{"name":"Gyllene Brunnen fest och konferens","id":1493,"link":"https:\/\/www.fjardhundraland.se\/plats\/gyllene-brunnen-fest-och-konferens\/","marker-color":"#f00","marker-size":"small"},"geometry":{"type":"Point","coordinates":[17.016095133205,59.734302514676]}},{"type":"Feature","properties":{"name":"H\u00e4rnevi plantskola","id":1498,"link":"https:\/\/www.fjardhundraland.se\/plats\/harnevi-plantskola\/","marker-color":"#f00","marker-size":"small"},"geometry":{"type":"Point","coordinates":[17.0836155,59.7135867]}},{"type":"Feature","properties":{"name":"Altuna hembygdsg\u00e5rd","id":973,"link":"https:\/\/www.fjardhundraland.se\/plats\/altuna-hembygdsgrd\/","marker-color":"#f00","marker-size":"small"},"geometry":{"type":"Point","coordinates":[16.9159297,59.8179803]}},{"type":"Feature","properties":{"name":"Dunderbo, Krigsstigen","id":963,"link":"https:\/\/www.fjardhundraland.se\/plats\/dunderbo-krigsstigen\/","marker-color":"#f00","marker-size":"small"},"geometry":{"type":"Point","coordinates":[16.92035715795,59.746078995358]}}]}