{"type":"FeatureCollection","features":[{"type":"Feature","properties":{"name":"Mel&#8217;s garage","id":2475,"link":"https:\/\/www.fjardhundraland.se\/plats\/mels-garage\/","marker-color":"#f00","marker-size":"small"},"geometry":{"type":"Point","coordinates":[17.0866095,59.6493612]}},{"type":"Feature","properties":{"name":"Mel&#8217;s Drive-in","id":1723,"link":"https:\/\/www.fjardhundraland.se\/plats\/mels-place\/","marker-color":"#f00","marker-size":"small"},"geometry":{"type":"Point","coordinates":[16.9264904,59.7739897]}},{"type":"Feature","properties":{"name":"Siggesta v\u00e4vstuga","id":1882,"link":"https:\/\/www.fjardhundraland.se\/plats\/siggesta-vavstuga\/","marker-color":"#f00","marker-size":"small"},"geometry":{"type":"Point","coordinates":[16.855516433716,59.760290835111]}},{"type":"Feature","properties":{"name":"Fj\u00e4rdhundrabadet","id":1819,"link":"https:\/\/www.fjardhundraland.se\/plats\/fjardhundrabadet\/","marker-color":"#f00","marker-size":"small"},"geometry":{"type":"Point","coordinates":[16.91499710083,59.774545691981]}},{"type":"Feature","properties":{"name":"Simtuna kyrka","id":1739,"link":"https:\/\/www.fjardhundraland.se\/plats\/simtuna-kyrka\/","marker-color":"#f00","marker-size":"small"},"geometry":{"type":"Point","coordinates":[16.900881063477,59.77334792605]}},{"type":"Feature","properties":{"name":"Fj\u00e4rdhundra","id":958,"link":"https:\/\/www.fjardhundraland.se\/plats\/fjrdhundra\/","marker-color":"#f00","marker-size":"small"},"geometry":{"type":"Point","coordinates":[0,0]}}]}