{"type":"FeatureCollection","features":[{"type":"Feature","properties":{"name":"Sl\u00e4ndans hantverk","id":4221,"link":"https:\/\/www.fjardhundraland.se\/plats\/slandans-hantverk\/","marker-color":"#f00","marker-size":"small"},"geometry":{"type":"Point","coordinates":[17.0092105,59.6311124]}},{"type":"Feature","properties":{"name":"Jultorpet Tr\u00e4dg\u00e5rd","id":4188,"link":"https:\/\/www.fjardhundraland.se\/plats\/jultorpet-tradgard\/","marker-color":"#f00","marker-size":"small"},"geometry":{"type":"Point","coordinates":[17.0415664,59.9659697]}},{"type":"Feature","properties":{"name":"Kr\u00e5kvilan kaf\u00e9 och bageri","id":1632,"link":"https:\/\/www.fjardhundraland.se\/plats\/krakvilan-bageri\/","marker-color":"#f00","marker-size":"small"},"geometry":{"type":"Point","coordinates":[17.141413092613,59.786297502687]}},{"type":"Feature","properties":{"name":"\u00c5sg\u00e5rden\u2013Uniki D Sign","id":3854,"link":"https:\/\/www.fjardhundraland.se\/plats\/asgarden-uniki-d-sign\/","marker-color":"#f00","marker-size":"small"},"geometry":{"type":"Point","coordinates":[16.6415918,59.8497861]}},{"type":"Feature","properties":{"name":"Butiken i L\u00f6th","id":3230,"link":"https:\/\/www.fjardhundraland.se\/plats\/butiken-i-loth\/","marker-color":"#f00","marker-size":"small"},"geometry":{"type":"Point","coordinates":[16.843572924976,59.683823104141]}},{"type":"Feature","properties":{"name":"Dunderbo Ljus och Hantverk","id":1008,"link":"https:\/\/www.fjardhundraland.se\/plats\/dunderbo-ljus-och-hantverk\/","marker-color":"#f00","marker-size":"small"},"geometry":{"type":"Point","coordinates":[16.9185869,59.748933]}},{"type":"Feature","properties":{"name":"Siggesta v\u00e4vstuga","id":1882,"link":"https:\/\/www.fjardhundraland.se\/plats\/siggesta-vavstuga\/","marker-color":"#f00","marker-size":"small"},"geometry":{"type":"Point","coordinates":[16.855516433716,59.760290835111]}},{"type":"Feature","properties":{"name":"Glada F\u00e5ret","id":1984,"link":"https:\/\/www.fjardhundraland.se\/plats\/glada-faret\/","marker-color":"#f00","marker-size":"small"},"geometry":{"type":"Point","coordinates":[16.839079856873,59.732985916569]}},{"type":"Feature","properties":{"name":"Lundellska galleriet","id":1880,"link":"https:\/\/www.fjardhundraland.se\/plats\/lundellska-galleriet\/","marker-color":"#f00","marker-size":"small"},"geometry":{"type":"Point","coordinates":[16.883035898209,59.779218435741]}},{"type":"Feature","properties":{"name":"Vreta g\u00e5rd","id":2566,"link":"https:\/\/www.fjardhundraland.se\/plats\/vreta-gard\/","marker-color":"#f00","marker-size":"small"},"geometry":{"type":"Point","coordinates":[16.8893114,59.6771469]}}]}