{"type":"FeatureCollection","features":[{"type":"Feature","properties":{"name":"Torpet Solviken","id":4098,"link":"https:\/\/www.fjardhundraland.se\/plats\/torpet-solviken\/","marker-color":"#f00","marker-size":"small"},"geometry":{"type":"Point","coordinates":[16.9695698,59.9625935]}},{"type":"Feature","properties":{"name":"Axels hus","id":4021,"link":"https:\/\/www.fjardhundraland.se\/plats\/axels-hus\/","marker-color":"#f00","marker-size":"small"},"geometry":{"type":"Point","coordinates":[16.728279727109,59.664379273229]}},{"type":"Feature","properties":{"name":"Tr\u00e4dg\u00e5rdsm\u00e4starbostaden Gr\u00f6ns\u00f6\u00f6 slott","id":3897,"link":"https:\/\/www.fjardhundraland.se\/plats\/tradgardsmastarbostaden-gronsoo-slott\/","marker-color":"#f00","marker-size":"small"},"geometry":{"type":"Point","coordinates":[17.245874,59.472378]}},{"type":"Feature","properties":{"name":"Bl\u00e5sbo","id":3881,"link":"https:\/\/www.fjardhundraland.se\/plats\/blasbo\/","marker-color":"#f00","marker-size":"small"},"geometry":{"type":"Point","coordinates":[16.9394129,59.7596651]}},{"type":"Feature","properties":{"name":"Working Horses","id":3077,"link":"https:\/\/www.fjardhundraland.se\/plats\/working-horses\/","marker-color":"#f00","marker-size":"small"},"geometry":{"type":"Point","coordinates":[17.196657219049,59.830410106278]}},{"type":"Feature","properties":{"name":"J\u00e4dra G\u00e5rd","id":2507,"link":"https:\/\/www.fjardhundraland.se\/plats\/jadra-gard\/","marker-color":"#f00","marker-size":"small"},"geometry":{"type":"Point","coordinates":[17.0562423,59.6712955]}},{"type":"Feature","properties":{"name":"H\u00e5rsb\u00e4cks Bed &#038; Breakfast","id":2298,"link":"https:\/\/www.fjardhundraland.se\/plats\/harsbacks-bed-breakfast\/","marker-color":"#f00","marker-size":"small"},"geometry":{"type":"Point","coordinates":[16.9097131,59.8842485]}},{"type":"Feature","properties":{"name":"Brunnbyhus","id":2060,"link":"https:\/\/www.fjardhundraland.se\/plats\/brunnbyhus\/","marker-color":"#f00","marker-size":"small"},"geometry":{"type":"Point","coordinates":[17.015590667725,59.734042375964]}},{"type":"Feature","properties":{"name":"Farmor Elsas g\u00e5rdsbageri","id":1011,"link":"https:\/\/www.fjardhundraland.se\/plats\/farmor-elsas-gardsbageri\/","marker-color":"#f00","marker-size":"small"},"geometry":{"type":"Point","coordinates":[16.9292521,59.80945]}},{"type":"Feature","properties":{"name":"Rotbrunna h\u00e4st &#038; kursg\u00e5rd","id":1778,"link":"https:\/\/www.fjardhundraland.se\/plats\/rotbrunna-hast-kursgard\/","marker-color":"#f00","marker-size":"small"},"geometry":{"type":"Point","coordinates":[17.063094756067,59.716885621558]}},{"type":"Feature","properties":{"name":"Refvelsta Fideikomiss","id":1866,"link":"https:\/\/www.fjardhundraland.se\/plats\/refvelsta-fideikomiss\/","marker-color":"#f00","marker-size":"small"},"geometry":{"type":"Point","coordinates":[16.970658302307,59.809752747148]}},{"type":"Feature","properties":{"name":"Alsta tr\u00e4dg\u00e5rdar","id":2341,"link":"https:\/\/www.fjardhundraland.se\/plats\/alsta-tradgardar\/","marker-color":"#f00","marker-size":"small"},"geometry":{"type":"Point","coordinates":[17.250101566315,59.752120311589]}}]}