{"type":"FeatureCollection","features":[{"type":"Feature","properties":{"name":"Forsby kvarn kaf\u00e9","id":1015,"link":"https:\/\/www.fjardhundraland.se\/plats\/forsby-kvarn-kafe\/","marker-color":"#f00","marker-size":"small"},"geometry":{"type":"Point","coordinates":[16.973118636771,59.779642804626]}},{"type":"Feature","properties":{"name":"Kr\u00e5kvilan kaf\u00e9 och bageri","id":1632,"link":"https:\/\/www.fjardhundraland.se\/plats\/krakvilan-bageri\/","marker-color":"#f00","marker-size":"small"},"geometry":{"type":"Point","coordinates":[17.141413092613,59.786297502687]}},{"type":"Feature","properties":{"name":"Bj\u00f6rnbo G\u00e5rd 4H","id":3337,"link":"https:\/\/www.fjardhundraland.se\/plats\/bjornbo-gard-4h\/","marker-color":"#f00","marker-size":"small"},"geometry":{"type":"Point","coordinates":[17.131805,59.679702]}},{"type":"Feature","properties":{"name":"Altunag\u00e5rden","id":3333,"link":"https:\/\/www.fjardhundraland.se\/plats\/altunagarden\/","marker-color":"#f00","marker-size":"small"},"geometry":{"type":"Point","coordinates":[16.927571296692,59.835694468001]}},{"type":"Feature","properties":{"name":"Gula Stallet Butik &#038; Kaf\u00e9","id":2304,"link":"https:\/\/www.fjardhundraland.se\/plats\/gula-stallet-butik-kafe\/","marker-color":"#f00","marker-size":"small"},"geometry":{"type":"Point","coordinates":[16.885986,59.599157]}},{"type":"Feature","properties":{"name":"Teda Art Project","id":3220,"link":"https:\/\/www.fjardhundraland.se\/plats\/teda-art-project\/","marker-color":"#f00","marker-size":"small"},"geometry":{"type":"Point","coordinates":[16.9037958,59.6013454]}},{"type":"Feature","properties":{"name":"Morgong\u00e5va vikingaomr\u00e5de","id":3238,"link":"https:\/\/www.fjardhundraland.se\/plats\/morgongava-vikingaomrade\/","marker-color":"#f00","marker-size":"small"},"geometry":{"type":"Point","coordinates":[16.9808095,59.9269523]}},{"type":"Feature","properties":{"name":"Butiken i L\u00f6th","id":3230,"link":"https:\/\/www.fjardhundraland.se\/plats\/butiken-i-loth\/","marker-color":"#f00","marker-size":"small"},"geometry":{"type":"Point","coordinates":[16.843572924976,59.683823104141]}},{"type":"Feature","properties":{"name":"Fr\u00f6slunda ekog\u00e5rd","id":1486,"link":"https:\/\/www.fjardhundraland.se\/plats\/froslunda-ekogard\/","marker-color":"#f00","marker-size":"small"},"geometry":{"type":"Point","coordinates":[16.916667,59.816667]}},{"type":"Feature","properties":{"name":"Glada Kossan","id":2882,"link":"https:\/\/www.fjardhundraland.se\/plats\/glada-kossan\/","marker-color":"#f00","marker-size":"small"},"geometry":{"type":"Point","coordinates":[16.8398997,59.7353353]}},{"type":"Feature","properties":{"name":"Franz\u00e9ns charkuterier","id":2312,"link":"https:\/\/www.fjardhundraland.se\/plats\/franzens-charkuterier\/","marker-color":"#f00","marker-size":"small"},"geometry":{"type":"Point","coordinates":[17.230253219604,59.71707495825]}},{"type":"Feature","properties":{"name":"H\u00e5rsb\u00e4cks Bed &#038; Breakfast","id":2298,"link":"https:\/\/www.fjardhundraland.se\/plats\/harsbacks-bed-breakfast\/","marker-color":"#f00","marker-size":"small"},"geometry":{"type":"Point","coordinates":[16.9097131,59.8842485]}},{"type":"Feature","properties":{"name":"Resta G\u00e5rd","id":1826,"link":"https:\/\/www.fjardhundraland.se\/plats\/resta-gard\/","marker-color":"#f00","marker-size":"small"},"geometry":{"type":"Point","coordinates":[17.2215433,59.7722813]}},{"type":"Feature","properties":{"name":"M\u00e4lby tr\u00e4dg\u00e5rd","id":1729,"link":"https:\/\/www.fjardhundraland.se\/plats\/malby-tradgard\/","marker-color":"#f00","marker-size":"small"},"geometry":{"type":"Point","coordinates":[16.9432563,59.7405592]}},{"type":"Feature","properties":{"name":"Pekoe ekologiskt te","id":1582,"link":"https:\/\/www.fjardhundraland.se\/plats\/pekoe-ekologiskt-te\/","marker-color":"#f00","marker-size":"small"},"geometry":{"type":"Point","coordinates":[17.108475,59.814161]}},{"type":"Feature","properties":{"name":"Landsberga g\u00e5rd","id":2215,"link":"https:\/\/www.fjardhundraland.se\/plats\/landsberga-gard\/","marker-color":"#f00","marker-size":"small"},"geometry":{"type":"Point","coordinates":[17.179587763013,59.740031577046]}},{"type":"Feature","properties":{"name":"S\u00f6rg\u00e5rden gr\u00f6nt","id":1881,"link":"https:\/\/www.fjardhundraland.se\/plats\/sorgarden-gront\/","marker-color":"#f00","marker-size":"small"},"geometry":{"type":"Point","coordinates":[17.035074234009,59.794632213175]}},{"type":"Feature","properties":{"name":"Skogsbackens ost","id":1855,"link":"https:\/\/www.fjardhundraland.se\/plats\/skogsbackens-ost\/","marker-color":"#f00","marker-size":"small"},"geometry":{"type":"Point","coordinates":[17.4093232,59.7178532]}},{"type":"Feature","properties":{"name":"Farmor Elsas g\u00e5rdsbageri","id":1011,"link":"https:\/\/www.fjardhundraland.se\/plats\/farmor-elsas-gardsbageri\/","marker-color":"#f00","marker-size":"small"},"geometry":{"type":"Point","coordinates":[16.9292521,59.80945]}},{"type":"Feature","properties":{"name":"Vallgarns g\u00e5rdsmejeri","id":1941,"link":"https:\/\/www.fjardhundraland.se\/plats\/vallgarns-gardsmejeri\/","marker-color":"#f00","marker-size":"small"},"geometry":{"type":"Point","coordinates":[17.157134833868,59.704033585229]}},{"type":"Feature","properties":{"name":"Dunderbo Ljus och Hantverk","id":1008,"link":"https:\/\/www.fjardhundraland.se\/plats\/dunderbo-ljus-och-hantverk\/","marker-color":"#f00","marker-size":"small"},"geometry":{"type":"Point","coordinates":[16.9185869,59.748933]}},{"type":"Feature","properties":{"name":"Rotbrunna h\u00e4st &#038; kursg\u00e5rd","id":1778,"link":"https:\/\/www.fjardhundraland.se\/plats\/rotbrunna-hast-kursgard\/","marker-color":"#f00","marker-size":"small"},"geometry":{"type":"Point","coordinates":[17.063094756067,59.716885621558]}},{"type":"Feature","properties":{"name":"Glada F\u00e5ret","id":1984,"link":"https:\/\/www.fjardhundraland.se\/plats\/glada-faret\/","marker-color":"#f00","marker-size":"small"},"geometry":{"type":"Point","coordinates":[16.839079856873,59.732985916569]}},{"type":"Feature","properties":{"name":"Lundellska galleriet","id":1880,"link":"https:\/\/www.fjardhundraland.se\/plats\/lundellska-galleriet\/","marker-color":"#f00","marker-size":"small"},"geometry":{"type":"Point","coordinates":[16.883035898209,59.779218435741]}},{"type":"Feature","properties":{"name":"Gyllene Brunnen fest och konferens","id":1493,"link":"https:\/\/www.fjardhundraland.se\/plats\/gyllene-brunnen-fest-och-konferens\/","marker-color":"#f00","marker-size":"small"},"geometry":{"type":"Point","coordinates":[17.016095133205,59.734302514676]}},{"type":"Feature","properties":{"name":"Alsta tr\u00e4dg\u00e5rdar","id":2341,"link":"https:\/\/www.fjardhundraland.se\/plats\/alsta-tradgardar\/","marker-color":"#f00","marker-size":"small"},"geometry":{"type":"Point","coordinates":[17.250101566315,59.752120311589]}},{"type":"Feature","properties":{"name":"VildaVingar Fj\u00e4rilstr\u00e4dg\u00e5rd","id":3272,"link":"https:\/\/www.fjardhundraland.se\/plats\/vildavingar-fjarilstradgard\/","marker-color":"#f00","marker-size":"small"},"geometry":{"type":"Point","coordinates":[16.8564813,59.7293787]}},{"type":"Feature","properties":{"name":"H\u00e4rnevi plantskola","id":1498,"link":"https:\/\/www.fjardhundraland.se\/plats\/harnevi-plantskola\/","marker-color":"#f00","marker-size":"small"},"geometry":{"type":"Point","coordinates":[17.0836155,59.7135867]}},{"type":"Feature","properties":{"name":"Altuna hembygdsg\u00e5rd","id":973,"link":"https:\/\/www.fjardhundraland.se\/plats\/altuna-hembygdsgrd\/","marker-color":"#f00","marker-size":"small"},"geometry":{"type":"Point","coordinates":[16.9159297,59.8179803]}},{"type":"Feature","properties":{"name":"H\u00e4rledg\u00e5rden","id":965,"link":"https:\/\/www.fjardhundraland.se\/plats\/hrledgrden\/","marker-color":"#f00","marker-size":"small"},"geometry":{"type":"Point","coordinates":[17.077341711578,59.785328435032]}},{"type":"Feature","properties":{"name":"Dunderbo, Krigsstigen","id":963,"link":"https:\/\/www.fjardhundraland.se\/plats\/dunderbo-krigsstigen\/","marker-color":"#f00","marker-size":"small"},"geometry":{"type":"Point","coordinates":[16.92035715795,59.746078995358]}}]}